{
  "locations": [
    {
      "id": 1,
      "name": "Toronto Downtown",
      "address": "123 Queen Street West",
      "city": "Toronto",
      "province": "ON",
      "postalCode": "M5H 2M9",
      "phone": "+1 (416) 555-0100",
      "coordinates": {
        "lat": 43.6532,
        "lng": -79.3832
      }
    },
    {
      "id": 2,
      "name": "Ottawa Central",
      "address": "456 Bank Street",
      "city": "Ottawa",
      "province": "ON",
      "postalCode": "K1P 5N7",
      "phone": "+1 (613) 555-0200",
      "coordinates": {
        "lat": 45.4215,
        "lng": -75.6972
      }
    },
    {
      "id": 3,
      "name": "Mississauga Square One",
      "address": "789 Burnhamthorpe Road West",
      "city": "Mississauga",
      "province": "ON",
      "postalCode": "L5B 4A5",
      "phone": "+1 (905) 555-0300",
      "coordinates": {
        "lat": 43.5890,
        "lng": -79.6441
      }
    },
    {
      "id": 4,
      "name": "Hamilton Downtown",
      "address": "321 Main Street East",
      "city": "Hamilton",
      "province": "ON",
      "postalCode": "L8N 1H1",
      "phone": "+1 (905) 555-0400",
      "coordinates": {
        "lat": 43.2557,
        "lng": -79.8711
      }
    },
    {
      "id": 5,
      "name": "London City Centre",
      "address": "555 Wellington Road",
      "city": "London",
      "province": "ON",
      "postalCode": "N6A 3P4",
      "phone": "+1 (519) 555-0500",
      "coordinates": {
        "lat": 42.9849,
        "lng": -81.2453
      }
    },
    {
      "id": 6,
      "name": "Brampton City Centre",
      "address": "100 Queen Street East",
      "city": "Brampton",
      "province": "ON",
      "postalCode": "L6V 1A1",
      "phone": "+1 (905) 555-0600",
      "coordinates": {
        "lat": 43.6833,
        "lng": -79.7667
      }
    },
    {
      "id": 7,
      "name": "Windsor Downtown",
      "address": "245 Ouellette Avenue",
      "city": "Windsor",
      "province": "ON",
      "postalCode": "N9A 4H9",
      "phone": "+1 (519) 555-0700",
      "coordinates": {
        "lat": 42.3149,
        "lng": -83.0364
      }
    },
    {
      "id": 8,
      "name": "Vaughan Metropolitan",
      "address": "2800 Highway 7",
      "city": "Vaughan",
      "province": "ON",
      "postalCode": "L4K 1W8",
      "phone": "+1 (905) 555-0800",
      "coordinates": {
        "lat": 43.8361,
        "lng": -79.4986
      }
    },
    {
      "id": 9,
      "name": "Kitchener Downtown",
      "address": "200 King Street West",
      "city": "Kitchener",
      "province": "ON",
      "postalCode": "N2G 1A6",
      "phone": "+1 (519) 555-0900",
      "coordinates": {
        "lat": 43.4516,
        "lng": -80.4925
      }
    },
    {
      "id": 10,
      "name": "Waterloo Uptown",
      "address": "75 King Street North",
      "city": "Waterloo",
      "province": "ON",
      "postalCode": "N2J 2W9",
      "phone": "+1 (519) 555-1000",
      "coordinates": {
        "lat": 43.4643,
        "lng": -80.5204
      }
    },
    {
      "id": 11,
      "name": "Burlington Downtown",
      "address": "426 Brant Street",
      "city": "Burlington",
      "province": "ON",
      "postalCode": "L7R 3Z7",
      "phone": "+1 (905) 555-1900",
      "coordinates": {
        "lat": 43.3255,
        "lng": -79.7990
      }
    },
    {
      "id": 12,
      "name": "Oakville Luxury Center",
      "address": "240 Lakeshore Road East",
      "city": "Oakville",
      "province": "ON",
      "postalCode": "L6J 1H7",
      "phone": "+1 (905) 555-2000",
      "coordinates": {
        "lat": 43.4501,
        "lng": -79.6691
      }
    },
    {
      "id": 13,
      "name": "Toronto Yorkville",
      "address": "100 Bloor Street West",
      "city": "Toronto",
      "province": "ON",
      "postalCode": "M5S 0A1",
      "phone": "+1 (416) 555-2100",
      "coordinates": {
        "lat": 43.6700,
        "lng": -79.3900
      }
    },
    {
      "id": 14,
      "name": "Toronto Airport",
      "address": "5980 Airport Road",
      "city": "Mississauga",
      "province": "ON",
      "postalCode": "L4V 1T1",
      "phone": "+1 (905) 555-2200",
      "coordinates": {
        "lat": 43.6777,
        "lng": -79.6248
      }
    },
    {
      "id": 15,
      "name": "Ottawa Parliament",
      "address": "211 Wellington Street",
      "city": "Ottawa",
      "province": "ON",
      "postalCode": "K1A 0A9",
      "phone": "+1 (613) 555-2300",
      "coordinates": {
        "lat": 45.4250,
        "lng": -75.7000
      }
    }
  ]
}